{
  "μπαρμπαγιάννης emmanouil benaki 94, athina 106 81, athens, greece": {
    "address": "Μπαρμπαγιάννης Emmanouil Benaki 94, Athina 106 81, Athens, Greece",
    "latitude": null,
    "longitude": null,
    "timestamp": 1757426048.547395
  },
  "leonidou 31, athina 104 36, athens, greece": {
    "address": "Leonidou 31, Athina 104 36, Athens, Greece",
    "latitude": 37.9829259,
    "longitude": 23.7201694,
    "timestamp": 1757426050.041024
  },
  "tsami karatasou 2, athina 117 42, athens, greece": {
    "address": "Tsami Karatasou 2, Athina 117 42, Athens, Greece",
    "latitude": 37.9668802,
    "longitude": 23.7244895,
    "timestamp": 1757426051.5792
  },
  "falirou 88, athina 117 41, athens, greece": {
    "address": "Falirou 88, Athina 117 41, Athens, Greece",
    "latitude": 37.9624346,
    "longitude": 23.7228538,
    "timestamp": 1757426053.133888
  },
  "leokoriou 8, athina 105 54, athens, greece": {
    "address": "Leokoriou 8, Athina 105 54, Athens, Greece",
    "latitude": 37.9772722,
    "longitude": 23.7221855,
    "timestamp": 1757426054.801016
  },
  "kolokotroni 59b, athina 105 62, athens, greece": {
    "address": "Kolokotroni 59B, Athina 105 62, Athens, Greece",
    "latitude": 37.9774451,
    "longitude": 23.7321816,
    "timestamp": 1757426056.401699
  },
  "paramithias 14, athina 104 35, athens, greece": {
    "address": "Paramithias 14, Athina 104 35, Athens, Greece",
    "latitude": null,
    "longitude": null,
    "timestamp": 1757426057.99135
  },
  "καρόρη 23 και, agathonos 1, athina 105 51, athens, greece": {
    "address": "Καρόρη 23 και, Agathonos 1, Athina 105 51, Athens, Greece",
    "latitude": null,
    "longitude": null,
    "timestamp": 1757426059.480423
  },
  "sarri 50, athina 105 53, athens, greece": {
    "address": "Sarri 50, Athina 105 53, Athens, Greece",
    "latitude": 37.9784375,
    "longitude": 23.7217286,
    "timestamp": 1757426061.011173
  },
  "keramikou 49, athina 104 36, athens, greece": {
    "address": "Keramikou 49, Athina 104 36, Athens, Greece",
    "latitude": null,
    "longitude": null,
    "timestamp": 1757426062.5491
  },
  "chatzigianni mexi 9, athina 115 28, athens, greece": {
    "address": "Chatzigianni Mexi 9, Athina 115 28, Athens, Greece",
    "latitude": null,
    "longitude": null,
    "timestamp": 1757426064.1809459
  },
  "iraklidon 8, athina 118 51, athens, greece": {
    "address": "Iraklidon 8, Athina 118 51, Athens, Greece",
    "latitude": 37.9749422,
    "longitude": 23.719145,
    "timestamp": 1757426065.65138
  },
  "katsoulieri 7, chalandri 152 33, athens, greece": {
    "address": "Katsoulieri 7, Chalandri 152 33, Athens, Greece",
    "latitude": null,
    "longitude": null,
    "timestamp": 1757426067.025641
  },
  "ergon house athens, 23, mitropoleos street, athina, athens, greece": {
    "address": "ERGON House Athens, 23, Mitropoleos Street, Athina, Athens, Greece",
    "latitude": null,
    "longitude": null,
    "timestamp": 1757426068.61554
  },
  "protogenous 11, athina 105 54, athens, greece": {
    "address": "Protogenous 11, Athina 105 54, Athens, Greece",
    "latitude": 37.9780247,
    "longitude": 23.7256277,
    "timestamp": 1757426070.0782568
  },
  "ipitou 4-6, athina 105 57, athens, greece": {
    "address": "Ipitou 4-6, Athina 105 57, Athens, Greece",
    "latitude": 37.9742513,
    "longitude": 23.7316582,
    "timestamp": 1757426071.661407
  },
  "iperidou 1, athina 105 58, athens, greece": {
    "address": "Iperidou 1, Athina 105 58, Athens, Greece",
    "latitude": 37.9735022,
    "longitude": 23.7327949,
    "timestamp": 1757426073.1753962
  },
  "navarinou 11, athina 106 80, athens, greece": {
    "address": "Navarinou 11, Athina 106 80, Athens, Greece",
    "latitude": 37.9832208,
    "longitude": 23.7356394,
    "timestamp": 1757426074.613326
  },
  "samou 4, athina 104 38, athens, greece": {
    "address": "Samou 4, Athina 104 38, Athens, Greece",
    "latitude": 37.9877392,
    "longitude": 23.7208647,
    "timestamp": 1757426076.285562
  },
  "solomou 54, athens, athens, greece": {
    "address": "Solomou 54, Athens, Athens, Greece",
    "latitude": 37.9870751,
    "longitude": 23.7307718,
    "timestamp": 1757426077.7408051
  },
  "pl. agion theodoron 3, athens, athens, greece": {
    "address": "Pl. Agion Theodoron 3, Athens, Athens, Greece",
    "latitude": 37.9792737,
    "longitude": 23.7296335,
    "timestamp": 1757426079.364755
  },
  "skoufou 15, athens, athens, greece": {
    "address": "Skoufou 15, Athens, Athens, Greece",
    "latitude": null,
    "longitude": null,
    "timestamp": 1757426080.896598
  },
  "iasonos 45, athens, athens, greece": {
    "address": "Iasonos 45, Athens, Athens, Greece",
    "latitude": 37.9846926,
    "longitude": 23.7200665,
    "timestamp": 1757426082.508914
  }
}