{
  "emmanouil benaki 94, athina 106 81, athens, greece": {
    "address": "Emmanouil Benaki 94, Athina 106 81, Athens, Greece",
    "latitude": 37.98628,
    "longitude": 23.7363789,
    "timestamp": 1758514935.474154
  },
  "leonidou 31, athina 104 36, athens, greece": {
    "address": "Leonidou 31, Athina 104 36, Athens, Greece",
    "latitude": 37.9829259,
    "longitude": 23.7201694,
    "timestamp": 1758514936.8846002
  },
  "tsami karatasou 2, athina 117 42, athens, greece": {
    "address": "Tsami Karatasou 2, Athina 117 42, Athens, Greece",
    "latitude": 37.9668802,
    "longitude": 23.7244895,
    "timestamp": 1758514938.3594592
  },
  "falirou 88, athina 117 41, athens, greece": {
    "address": "Falirou 88, Athina 117 41, Athens, Greece",
    "latitude": 37.9624346,
    "longitude": 23.7228538,
    "timestamp": 1758514939.818607
  },
  "leokoriou 8, athina 105 54, athens, greece": {
    "address": "Leokoriou 8, Athina 105 54, Athens, Greece",
    "latitude": 37.9773159,
    "longitude": 23.7221886,
    "timestamp": 1758514941.2735958
  },
  "kolokotroni 59b, athina 105 62, athens, greece": {
    "address": "Kolokotroni 59B, Athina 105 62, Athens, Greece",
    "latitude": 37.9774451,
    "longitude": 23.7321816,
    "timestamp": 1758514942.806998
  },
  "sarri 50, athina 105 53, athens, greece": {
    "address": "Sarri 50, Athina 105 53, Athens, Greece",
    "latitude": 37.978408,
    "longitude": 23.7216919,
    "timestamp": 1758514947.4526699
  },
  "iraklidon 8, athina 118 51, athens, greece": {
    "address": "Iraklidon 8, Athina 118 51, Athens, Greece",
    "latitude": 37.9749422,
    "longitude": 23.719145,
    "timestamp": 1758514951.954696
  },
  "protogenous 11, athina 105 54, athens, greece": {
    "address": "Protogenous 11, Athina 105 54, Athens, Greece",
    "latitude": 37.9780247,
    "longitude": 23.7256277,
    "timestamp": 1758514957.0894132
  },
  "ipitou 4-6, athina 105 57, athens, greece": {
    "address": "Ipitou 4-6, Athina 105 57, Athens, Greece",
    "latitude": 37.9742513,
    "longitude": 23.7316582,
    "timestamp": 1758514958.598625
  },
  "iperidou 1, athina 105 58, athens, greece": {
    "address": "Iperidou 1, Athina 105 58, Athens, Greece",
    "latitude": 37.9735022,
    "longitude": 23.7327949,
    "timestamp": 1758514959.9854772
  },
  "navarinou 11, athina 106 80, athens, greece": {
    "address": "Navarinou 11, Athina 106 80, Athens, Greece",
    "latitude": 37.9832208,
    "longitude": 23.7356394,
    "timestamp": 1758514961.4474392
  },
  "samou 4, athina 104 38, athens, greece": {
    "address": "Samou 4, Athina 104 38, Athens, Greece",
    "latitude": 37.9877392,
    "longitude": 23.7208647,
    "timestamp": 1758514962.978025
  },
  "solomou 54, athens, greece": {
    "address": "Solomou 54, Athens, Greece",
    "latitude": 37.9870751,
    "longitude": 23.7307718,
    "timestamp": 1758514964.445585
  },
  "pl. agion theodoron 3, athens, greece": {
    "address": "Pl. Agion Theodoron 3, Athens, Greece",
    "latitude": 37.9792737,
    "longitude": 23.7296335,
    "timestamp": 1758514965.951442
  },
  "iasonos 45, athens, greece": {
    "address": "Iasonos 45, Athens, Greece",
    "latitude": 37.9846926,
    "longitude": 23.7200665,
    "timestamp": 1758514968.812379
  },
  "athinas 44, athina 105 51, athens, greece": {
    "address": "Athinas 44, Athina 105 51, Athens, Greece",
    "latitude": 37.9805916,
    "longitude": 23.7272923,
    "timestamp": 1758514970.235371
  },
  "petraki 1, athina 105 63, athens, greece": {
    "address": "Petraki 1, Athina 105 63, Athens, Greece",
    "latitude": 37.9755604,
    "longitude": 23.7322808,
    "timestamp": 1758514975.681447
  },
  "klitiou 6, athina 105 60, athens, greece": {
    "address": "Klitiou 6, Athina 105 60, Athens, Greece",
    "latitude": 37.9773613,
    "longitude": 23.7298042,
    "timestamp": 1758514977.0959911
  },
  "normanou 5, athina 105 55, athens, greece": {
    "address": "Normanou 5, Athina 105 55, Athens, Greece",
    "latitude": 37.9765058,
    "longitude": 23.7244034,
    "timestamp": 1758514980.084529
  },
  "praxitelous 33, athina 105 60, athens, greece": {
    "address": "Praxitelous 33, Athina 105 60, Athens, Greece",
    "latitude": 37.9790208,
    "longitude": 23.7294877,
    "timestamp": 1758514981.522035
  },
  "pl. kanari 15, athens, greece": {
    "address": "Pl. Kanari 15, Athens, Greece",
    "latitude": 38.0029607,
    "longitude": 23.7410331,
    "timestamp": 1758514983.4325309
  },
  "mnisikleous 24β, athina 105 56, athens, greece": {
    "address": "Mnisikleous 24β, Athina 105 56, Athens, Greece",
    "latitude": 37.9751361,
    "longitude": 23.7286739,
    "timestamp": 1758514984.926244
  },
  "anaxagora 3, athina 105 52, athens, greece": {
    "address": "Anaxagora 3, Athina 105 52, Athens, Greece",
    "latitude": 37.9822911,
    "longitude": 23.7259538,
    "timestamp": 1758514986.317153
  },
  "salaminos 72, athina 104 35, athens, greece": {
    "address": "Salaminos 72, Athina 104 35, Athens, Greece",
    "latitude": 37.9819766,
    "longitude": 23.7166149,
    "timestamp": 1758514987.8317142
  },
  "miaouli 2, athina 105 54, athens, greece": {
    "address": "Miaouli 2, Athina 105 54, Athens, Greece",
    "latitude": 37.9768827,
    "longitude": 23.7258557,
    "timestamp": 1758514990.7624419
  },
  "normanou 3, athina 105 55, athens, greece": {
    "address": "Normanou 3, Athina 105 55, Athens, Greece",
    "latitude": 37.9766753,
    "longitude": 23.7244548,
    "timestamp": 1758514992.196998
  },
  "ioustinianou 2, athina 114 73, athens, greece": {
    "address": "Ioustinianou 2, Athina 114 73, Athens, Greece",
    "latitude": 37.9891953,
    "longitude": 23.7363289,
    "timestamp": 1758514993.63203
  },
  "voutsara 4-6, athina 118 55, athens, greece": {
    "address": "Voutsara 4-6, Athina 118 55, Athens, Greece",
    "latitude": 37.9773853,
    "longitude": 23.7034929,
    "timestamp": 1758514996.706526
  },
  "voulis 7, athina 105 62, athens, greece": {
    "address": "Voulis 7, Athina 105 62, Athens, Greece",
    "latitude": 37.9768966,
    "longitude": 23.7334542,
    "timestamp": 1758514998.130913
  },
  "praxitelous 30, athina 105 61, athens, greece": {
    "address": "Praxitelous 30, Athina 105 61, Athens, Greece",
    "latitude": 37.9789715,
    "longitude": 23.7298314,
    "timestamp": 1758515000.422513
  },
  "taki 14, athina 105 54, athens, greece": {
    "address": "Taki 14, Athina 105 54, Athens, Greece",
    "latitude": 37.978466,
    "longitude": 23.723904,
    "timestamp": 1758515001.8451881
  },
  "plateia dexamenis, athina 106 73, athens, greece": {
    "address": "Plateia Dexamenis, Athina 106 73, Athens, Greece",
    "latitude": 37.978976,
    "longitude": 23.7410396,
    "timestamp": 1758515003.243736
  },
  "kalamiotou 15, 105 60, athens, athens, greece": {
    "address": "Kalamiotou 15, 105 60, Athens, Athens, Greece",
    "latitude": 37.9771462,
    "longitude": 23.7288609,
    "timestamp": 1758515006.273449
  },
  "voulis 36, athina 105 57, athens, greece": {
    "address": "Voulis 36, Athina 105 57, Athens, Greece",
    "latitude": 37.9755066,
    "longitude": 23.7324744,
    "timestamp": 1758515007.717953
  },
  "ag. dimitriou 12, athina 105 54, athens, greece": {
    "address": "Ag. Dimitriou 12, Athina 105 54, Athens, Greece",
    "latitude": 37.979654,
    "longitude": 23.7259362,
    "timestamp": 1758515009.229957
  },
  "pindarou 6, athina 106 71, athens, greece": {
    "address": "Pindarou 6, Athina 106 71, Athens, Greece",
    "latitude": 37.9776267,
    "longitude": 23.7382678,
    "timestamp": 1758515010.668593
  },
  "emmanouil benaki 74, athina 106 81, athens, greece": {
    "address": "Emmanouil Benaki 74, Athina 106 81, Athens, Greece",
    "latitude": 37.9856508,
    "longitude": 23.7351796,
    "timestamp": 1758515012.0521789
  },
  "panepistimiou 64, athina 105 64, athens, greece": {
    "address": "Panepistimiou 64, Athina 105 64, Athens, Greece",
    "latitude": 37.9840095,
    "longitude": 23.729685,
    "timestamp": 1758515016.65045
  },
  "sporadon 26, athina 113 61, athens, greece": {
    "address": "Sporadon 26, Athina 113 61, Athens, Greece",
    "latitude": 37.9991955,
    "longitude": 23.7375221,
    "timestamp": 1758515021.463756
  },
  "papadiamantopoulou 24β, athina 115 28, athens, greece": {
    "address": "Papadiamantopoulou 24Β, Athina 115 28, Athens, Greece",
    "latitude": 37.9787108,
    "longitude": 23.7549157,
    "timestamp": 1758515024.655396
  },
  "lepeniotou 19, athina 105 54, athens, greece": {
    "address": "Lepeniotou 19, Athina 105 54, Athens, Greece",
    "latitude": 37.978418,
    "longitude": 23.7230035,
    "timestamp": 1758515026.070026
  },
  "akadimias 87, athina 106 78, athens, greece": {
    "address": "Akadimias 87, Athina 106 78, Athens, Greece",
    "latitude": 37.9844979,
    "longitude": 23.7317598,
    "timestamp": 1758515027.500243
  },
  "naiadon 2, palaio faliro, athens, greece": {
    "address": "Naiadon 2, Palaio Faliro, Athens, Greece",
    "latitude": 37.9296573,
    "longitude": 23.6927783,
    "timestamp": 1758515037.615386
  },
  "kolokotroni 25, athina 105 62, athens, greece": {
    "address": "Kolokotroni 25, Athina 105 62, Athens, Greece",
    "latitude": 37.9774451,
    "longitude": 23.7321816,
    "timestamp": 1758515053.274236
  },
  "sarri 19, athina 105 53, athens, greece": {
    "address": "Sarri 19, Athina 105 53, Athens, Greece",
    "latitude": 37.9791374,
    "longitude": 23.7228706,
    "timestamp": 1758515054.671069
  },
  "leonidou 63-65, athina 104 35, athens, greece": {
    "address": "Leonidou 63-65, Athina 104 35, Athens, Greece",
    "latitude": 37.9817657,
    "longitude": 23.7174706,
    "timestamp": 1758515056.115086
  },
  "falirou 88, koukaki 117 41, athens, greece": {
    "address": "Falirou 88, Koukaki 117 41, Athens, Greece",
    "latitude": 37.9624346,
    "longitude": 23.7228538,
    "timestamp": 1758515059.930818
  },
  "evias street 7, athens, greece": {
    "address": "Evias Street 7, Athens, Greece",
    "latitude": 37.9984124,
    "longitude": 23.742406,
    "timestamp": 1758515064.098633
  },
  "plateia dexamenis 7, athens, greece": {
    "address": "Plateia Dexamenis 7, Athens, Greece",
    "latitude": 37.978976,
    "longitude": 23.7410396,
    "timestamp": 1758515065.523284
  },
  "perikleous 56, athens, greece": {
    "address": "Perikleous 56, Athens, Greece",
    "latitude": 37.9768775,
    "longitude": 23.7298229,
    "timestamp": 1758515067.0193028
  },
  "archelaou 7, athens, greece": {
    "address": "Archelaou 7, Athens, Greece",
    "latitude": 37.9707259,
    "longitude": 23.7466568,
    "timestamp": 1758515068.404565
  },
  "ioánnou drosopoúlou 65, athina 112 57, athens, greece": {
    "address": "Ioánnou Drosopoúlou 65, Athina 112 57, Athens, Greece",
    "latitude": 38.0003504,
    "longitude": 23.7346553,
    "timestamp": 1758515072.7782269
  },
  "deinokratous 4, kolonaki 106 75, athens, greece": {
    "address": "Deinokratous 4, Kolonaki 106 75, Athens, Greece",
    "latitude": 37.9807064,
    "longitude": 23.7490501,
    "timestamp": 1758515074.257569
  },
  "nikis 11, athina 105 63, athens, greece": {
    "address": "Nikis 11, Athina 105 63, Athens, Greece",
    "latitude": 37.9749099,
    "longitude": 23.7332815,
    "timestamp": 1758515075.7110898
  },
  "kolokotroni 57, athina 105 60, athens, greece": {
    "address": "Kolokotroni 57, Athina 105 60, Athens, Greece",
    "latitude": 37.9777201,
    "longitude": 23.7295494,
    "timestamp": 1758515085.0184379
  },
  "kriezotou 6, athina 106 71, athens, greece": {
    "address": "Kriezotou 6, Athina 106 71, Athens, Greece",
    "latitude": 37.9770363,
    "longitude": 23.7364823,
    "timestamp": 1758515086.4166038
  },
  "ippokratous 121-123, athina 114 72, athens, greece": {
    "address": "Ippokratous 121-123, Athina 114 72, Athens, Greece",
    "latitude": 37.9857441,
    "longitude": 23.7412384,
    "timestamp": 1758515087.884446
  },
  "normanou 3, monastiraki 105 55, athens, greece": {
    "address": "Normanou 3, Monastiraki 105 55, Athens, Greece",
    "latitude": 37.9766753,
    "longitude": 23.7244548,
    "timestamp": 1758515089.277615
  },
  "plateia dexamenis 7, athina 106 73, athens, greece": {
    "address": "Plateia Dexamenis 7, Athina 106 73, Athens, Greece",
    "latitude": 37.978976,
    "longitude": 23.7410396,
    "timestamp": 1758515090.736898
  },
  "perikleous 56, athina 105 60, athens, greece": {
    "address": "Perikleous 56, Athina 105 60, Athens, Greece",
    "latitude": 37.9768775,
    "longitude": 23.7298229,
    "timestamp": 1758515092.1102788
  },
  "archelaou 1, pangrati 116 35, athens, greece": {
    "address": "Archelaou 1, Pangrati 116 35, Athens, Greece",
    "latitude": 37.9703987,
    "longitude": 23.7469134,
    "timestamp": 1758515104.384256
  },
  "archelaou 2, pangrati 116 35, athens, greece": {
    "address": "Archelaou 2, Pangrati 116 35, Athens, Greece",
    "latitude": 37.9704558,
    "longitude": 23.747128,
    "timestamp": 1758515107.1732779
  },
  "didotou 34, exarchia 106 80, athens, greece": {
    "address": "Didotou 34, Exarchia 106 80, Athens, Greece",
    "latitude": 37.9841033,
    "longitude": 23.7362351,
    "timestamp": 1758515110.166938
  },
  "valtetsiou 21, athina 106 80, athens, greece": {
    "address": "Valtetsiou 21, Athina 106 80, Athens, Greece",
    "latitude": 37.9841401,
    "longitude": 23.7367607,
    "timestamp": 1758515114.0228102
  },
  "kallidromiou 69, exarchia 114 73, athens, greece": {
    "address": "Kallidromiou 69, Exarchia 114 73, Athens, Greece",
    "latitude": 37.9880951,
    "longitude": 23.7368252,
    "timestamp": 1758515115.4856262
  },
  "aristofanous 1, athina 105 54, athens, greece": {
    "address": "Aristofanous 1, Athina 105 54, Athens, Greece",
    "latitude": 37.9785335,
    "longitude": 23.7248772,
    "timestamp": 1758515116.880497
  },
  "athinas 31, athina 105 54, athens, greece": {
    "address": "Athinas 31, Athina 105 54, Athens, Greece",
    "latitude": 37.9783056,
    "longitude": 23.7265606,
    "timestamp": 1758515118.317975
  },
  "kolokotroni 62, athina 105 60, athens, greece": {
    "address": "Kolokotroni 62, Athina 105 60, Athens, Greece",
    "latitude": 37.9777201,
    "longitude": 23.7295494,
    "timestamp": 1758515119.789254
  },
  "protogenous 6, athina 105 54, athens, greece": {
    "address": "Protogenous 6, Athina 105 54, Athens, Greece",
    "latitude": 37.9780894,
    "longitude": 23.7255323,
    "timestamp": 1758515121.222677
  },
  "megalou alexandrou 12, athina 104 35, athens, greece": {
    "address": "Megalou Alexandrou 12, Athina 104 35, Athens, Greece",
    "latitude": 37.9817934,
    "longitude": 23.7148207,
    "timestamp": 1758515124.230061
  },
  "fokionos negri 16, kypseli 113 61, athens, greece": {
    "address": "Fokionos Negri 16, Kypseli 113 61, Athens, Greece",
    "latitude": 38.0011072,
    "longitude": 23.7381811,
    "timestamp": 1758515125.702823
  },
  "drakou 15, koukaki 117 42, athens, greece": {
    "address": "Drakou 15, Koukaki 117 42, Athens, Greece",
    "latitude": 37.9654728,
    "longitude": 23.7257397,
    "timestamp": 1758515134.8784902
  },
  "tsami karatasou 2, koukaki 117 42, athens, greece": {
    "address": "Tsami Karatasou 2, Koukaki 117 42, Athens, Greece",
    "latitude": 37.9668802,
    "longitude": 23.7244895,
    "timestamp": 1758515136.36064
  },
  "iperionos 1, athina 118 51, athens, greece": {
    "address": "Iperionos 1, Athina 118 51, Athens, Greece",
    "latitude": 37.97005,
    "longitude": 23.7136851,
    "timestamp": 1758515143.856108
  },
  "leonidou 31, metaxourgio 104 36, athens, greece": {
    "address": "Leonidou 31, Metaxourgio 104 36, Athens, Greece",
    "latitude": 37.9813648,
    "longitude": 23.7165172,
    "timestamp": 1758515146.979119
  },
  "arkadon 8, athina 118 52, athens, greece": {
    "address": "Arkadon 8, Athina 118 52, Athens, Greece",
    "latitude": 37.9662196,
    "longitude": 23.712869,
    "timestamp": 1758515151.5239758
  },
  "sporadon 37, athina 113 61, athens, greece": {
    "address": "Sporadon 37, Athina 113 61, Athens, Greece",
    "latitude": 37.9999926,
    "longitude": 23.7375592,
    "timestamp": 1758515157.472519
  },
  "naxou 28, athina 112 56, athens, greece": {
    "address": "Naxou 28, Athina 112 56, Athens, Greece",
    "latitude": 38.0077256,
    "longitude": 23.737052,
    "timestamp": 1758515158.884896
  },
  "lepeniotou 14, athina 105 54, athens, greece": {
    "address": "Lepeniotou 14, Athina 105 54, Athens, Greece",
    "latitude": 37.9785532,
    "longitude": 23.7228255,
    "timestamp": 1758515160.316176
  },
  "papadiamantopoulou 30, athina 115 28, athens, greece": {
    "address": "Papadiamantopoulou 30, Athina 115 28, Athens, Greece",
    "latitude": 37.9783871,
    "longitude": 23.7535938,
    "timestamp": 1758515166.004898
  },
  "φρυνης 51, athens 11633, athens, greece": {
    "address": "Φρυνης 51, Athens 11633, Athens, Greece",
    "latitude": 37.9647022,
    "longitude": 23.7498129,
    "timestamp": 1758515167.46274
  },
  "aristofanous 1, athens 10554, athens, greece": {
    "address": "Aristofanous 1, Athens 10554, Athens, Greece",
    "latitude": 37.9785335,
    "longitude": 23.7248772,
    "timestamp": 1758515168.885816
  },
  "kallirois 39, athina 117 43, athens, greece": {
    "address": "Kallirois 39, Athina 117 43, Athens, Greece",
    "latitude": 37.9645244,
    "longitude": 23.7277079,
    "timestamp": 1758515176.260679
  },
  "troon 36, athina 118 51, athens, greece": {
    "address": "Troon 36, Athina 118 51, Athens, Greece",
    "latitude": 37.9696767,
    "longitude": 23.7128711,
    "timestamp": 1758515177.69042
  },
  "leonidou 9, metaxourgeio 104 37, athens, greece": {
    "address": "Leonidou 9, Metaxourgeio 104 37, Athens, Greece",
    "latitude": 37.9813648,
    "longitude": 23.7165172,
    "timestamp": 1758515179.226809
  },
  "ithakis 9, athina 112 57, athens, greece": {
    "address": "Ithakis 9, Athina 112 57, Athens, Greece",
    "latitude": 37.9976114,
    "longitude": 23.7349591,
    "timestamp": 1758515183.537132
  },
  "zoodochou pigis 71, athina 106 81, athens, greece": {
    "address": "Zoodochou Pigis 71, Athina 106 81, Athens, Greece",
    "latitude": 37.9857448,
    "longitude": 23.7377036,
    "timestamp": 1758515190.864644
  },
  "negri fokionos 25, athina 113 61, athens, greece": {
    "address": "Negri Fokionos 25, Athina 113 61, Athens, Greece",
    "latitude": 38.0011072,
    "longitude": 23.7381811,
    "timestamp": 1758515193.980623
  },
  "kallidromiou 69, athina 106 83, athens, greece": {
    "address": "Kallidromiou 69, Athina 106 83, Athens, Greece",
    "latitude": 37.9879297,
    "longitude": 23.7369634,
    "timestamp": 1758515195.426749
  },
  "anapafseos 22, athina 116 36, athens, greece": {
    "address": "Anapafseos 22, Athina 116 36, Athens, Greece",
    "latitude": 37.9660768,
    "longitude": 23.7346666,
    "timestamp": 1758515198.8268642
  },
  "sporadon 26, athens 113 61, athens, greece": {
    "address": "Sporadon 26, Athens 113 61, Athens, Greece",
    "latitude": 37.9991955,
    "longitude": 23.7375221,
    "timestamp": 1758515200.3032498
  },
  "akadimias 25, athina 106 71, athens, greece": {
    "address": "Akadimias 25, Athina 106 71, Athens, Greece",
    "latitude": 37.9784359,
    "longitude": 23.7367252,
    "timestamp": 1758515203.0995631
  },
  "protogenous 16, athina 105 54, athens, greece": {
    "address": "Protogenous 16, Athina 105 54, Athens, Greece",
    "latitude": 37.9780894,
    "longitude": 23.7255323,
    "timestamp": 1758515206.055435
  },
  "ermou 120, athina 105 54, athens, greece": {
    "address": "Ermou 120, Athina 105 54, Athens, Greece",
    "latitude": 37.9774001,
    "longitude": 23.721711,
    "timestamp": 1758515207.495678
  },
  "mitropoleos 54, athens, athens, greece": {
    "address": "Mitropoleos 54, Athens, Athens, Greece",
    "latitude": 37.9756881,
    "longitude": 23.7295735,
    "timestamp": 1758515213.134916
  },
  "roma 5, athina 106 73, athens, greece": {
    "address": "Roma 5, Athina 106 73, Athens, Greece",
    "latitude": 37.9786158,
    "longitude": 23.7389181,
    "timestamp": 1758515219.4987898
  },
  "omirou 27, athina 106 72, athens, greece": {
    "address": "Omirou 27, Athina 106 72, Athens, Greece",
    "latitude": 37.9800683,
    "longitude": 23.7367203,
    "timestamp": 1758515220.898156
  },
  "leokoriou 8, athens, greece": {
    "address": "Leokoriou 8, Athens, Greece",
    "latitude": 37.9784814,
    "longitude": 23.7213164,
    "timestamp": 1758515225.175033
  },
  "iperidou 3, athens, greece": {
    "address": "Iperidou 3, Athens, Greece",
    "latitude": 37.9734853,
    "longitude": 23.7326869,
    "timestamp": 1758515226.5757802
  },
  "mitropoleos 49, athens, greece": {
    "address": "Mitropoleos 49, Athens, Greece",
    "latitude": 37.9758923,
    "longitude": 23.728056,
    "timestamp": 1758515227.991793
  },
  "lekka 18, athens, greece": {
    "address": "Lekka 18, Athens, Greece",
    "latitude": 38.0258975,
    "longitude": 23.7438653,
    "timestamp": 1758515229.461109
  },
  "deinokratous 4, kolonaki, athens, greece": {
    "address": "Deinokratous 4, Kolonaki, Athens, Greece",
    "latitude": 37.9807064,
    "longitude": 23.7490501,
    "timestamp": 1758515230.874665
  },
  "protogenous 13, athina 105 54, athens, greece": {
    "address": "Protogenous 13, Athina 105 54, Athens, Greece",
    "latitude": 37.9780167,
    "longitude": 23.7255035,
    "timestamp": 1758515233.831668
  },
  "kyprou 48, glyfada, athens, greece": {
    "address": "Kyprou 48, Glyfada, Athens, Greece",
    "latitude": 37.8642942,
    "longitude": 23.7512212,
    "timestamp": 1758515235.312358
  },
  "grigoriou lampraki 2, glifada 166 74, athens, greece": {
    "address": "Grigoriou Lampraki 2, Glifada 166 74, Athens, Greece",
    "latitude": 37.8643339,
    "longitude": 23.7537557,
    "timestamp": 1758515238.189045
  },
  "alopekis 9, athina 106 75, athens, greece": {
    "address": "Alopekis 9, Athina 106 75, Athens, Greece",
    "latitude": 37.9774064,
    "longitude": 23.7431797,
    "timestamp": 1758515239.616086
  },
  "kallidromiou 64, athina 114 73, athens, greece": {
    "address": "Kallidromiou 64, Athina 114 73, Athens, Greece",
    "latitude": 37.987955,
    "longitude": 23.7371803,
    "timestamp": 1758515249.1958232
  },
  "apostolou pavlou 7, athina 118 51, athens, greece": {
    "address": "Apostolou Pavlou 7, Athina 118 51, Athens, Greece",
    "latitude": 37.9727093,
    "longitude": 23.7203599,
    "timestamp": 1758515256.9704509
  },
  "imittou 39, kesariani 161 21, athens, greece": {
    "address": "Imittou 39, Kesariani 161 21, Athens, Greece",
    "latitude": 37.9714407,
    "longitude": 23.7577031,
    "timestamp": 1758515259.9178932
  },
  "evripidou 46, kallithea 176 74, athens, greece": {
    "address": "Evripidou 46, Kallithea 176 74, Athens, Greece",
    "latitude": 37.948414,
    "longitude": 23.6861162,
    "timestamp": 1758515261.376736
  },
  "agiou alexandrou 24, paleo faliro 175 61, athens, greece": {
    "address": "Agiou Alexandrou 24, Paleo Faliro 175 61, Athens, Greece",
    "latitude": 37.9276637,
    "longitude": 23.6935573,
    "timestamp": 1758515268.969175
  },
  "dimofontos 10, athina 118 51, athens, greece": {
    "address": "Dimofontos 10, Athina 118 51, Athens, Greece",
    "latitude": 37.97541,
    "longitude": 23.7149359,
    "timestamp": 1758515271.885382
  },
  "lakonias 33, athina 115 23, athens, greece": {
    "address": "Lakonias 33, Athina 115 23, Athens, Greece",
    "latitude": 37.9919357,
    "longitude": 23.7634828,
    "timestamp": 1758515274.916003
  },
  "agias varvaras 55, dafni 172 35, athens, greece": {
    "address": "Agias Varvaras 55, Dafni 172 35, Athens, Greece",
    "latitude": 37.9499113,
    "longitude": 23.7348155,
    "timestamp": 1758515285.322506
  },
  "limpona 5, athens, athens, greece": {
    "address": "Limpona 5, Athens, Athens, Greece",
    "latitude": 37.9776338,
    "longitude": 23.728409,
    "timestamp": 1758515293.846207
  },
  "karaiskaki 28, athens, athens, greece": {
    "address": "Karaiskaki 28, Athens, Athens, Greece",
    "latitude": 37.9781074,
    "longitude": 23.7247402,
    "timestamp": 1758515296.6961138
  },
  "kerameikou 49, athens, athens, greece": {
    "address": "Kerameikou 49, Athens, Athens, Greece",
    "latitude": 37.9822576,
    "longitude": 23.7202893,
    "timestamp": 1758515299.5933921
  },
  "kypseli, athens, athens, greece": {
    "address": "Kypseli, Athens, Athens, Greece",
    "latitude": 38.0027883,
    "longitude": 23.7414215,
    "timestamp": 1758515301.007926
  },
  "markou mpotsari 49, athens, athens, greece": {
    "address": "Markou Mpotsari 49, Athens, Athens, Greece",
    "latitude": 37.9212595,
    "longitude": 23.7323571,
    "timestamp": 1758515302.4363258
  },
  "lakonias 33, athens, athens, greece": {
    "address": "Lakonias 33, Athens, Athens, Greece",
    "latitude": 37.9910655,
    "longitude": 23.764255,
    "timestamp": 1758515305.299658
  },
  "evias street 7, athens, athens, greece": {
    "address": "Evias Street 7, Athens, Athens, Greece",
    "latitude": 37.9984124,
    "longitude": 23.742406,
    "timestamp": 1758515321.145733
  },
  "plateia dexamenis 7, athens, athens, greece": {
    "address": "Plateia Dexamenis 7, Athens, Athens, Greece",
    "latitude": 37.978976,
    "longitude": 23.7410396,
    "timestamp": 1758515322.561558
  },
  "perikleous 56, athens, athens, greece": {
    "address": "Perikleous 56, Athens, Athens, Greece",
    "latitude": 37.9768775,
    "longitude": 23.7298229,
    "timestamp": 1758515323.985837
  },
  "archelaou 7, athens, athens, greece": {
    "address": "Archelaou 7, Athens, Athens, Greece",
    "latitude": 37.9707259,
    "longitude": 23.7466568,
    "timestamp": 1758515325.387927
  },
  "rizari 22, athina 116 35, athens, greece": {
    "address": "Rizari 22, Athina 116 35, Athens, Greece",
    "latitude": 37.9734841,
    "longitude": 23.7466987,
    "timestamp": 1758515328.241772
  },
  "persefonis 59, athina 118 54, athens, greece": {
    "address": "Persefonis 59, Athina 118 54, Athens, Greece",
    "latitude": 37.9775313,
    "longitude": 23.7128633,
    "timestamp": 1758515329.668203
  },
  "falirou 48, koukaki, athens, greece": {
    "address": "Falirou 48, Koukaki, Athens, Greece",
    "latitude": 37.9648069,
    "longitude": 23.7257515,
    "timestamp": 1758515336.938847
  },
  "pallados 19, psyrri, athens, greece": {
    "address": "Pallados 19, Psyrri, Athens, Greece",
    "latitude": 37.9782676,
    "longitude": 23.7254576,
    "timestamp": 1758515342.965585
  }
}