{
  "μπαρμπαγιάννης emmanouil benaki 94, athina 106 81, athens, greece": {
    "address": "Μπαρμπαγιάννης Emmanouil Benaki 94, Athina 106 81, Athens, Greece",
    "latitude": null,
    "longitude": null,
    "timestamp": 1757426048.547395
  },
  "leonidou 31, athina 104 36, athens, greece": {
    "address": "Leonidou 31, Athina 104 36, Athens, Greece",
    "latitude": 37.9829259,
    "longitude": 23.7201694,
    "timestamp": 1757426050.041024
  },
  "tsami karatasou 2, athina 117 42, athens, greece": {
    "address": "Tsami Karatasou 2, Athina 117 42, Athens, Greece",
    "latitude": 37.9668802,
    "longitude": 23.7244895,
    "timestamp": 1757426051.5792
  },
  "falirou 88, athina 117 41, athens, greece": {
    "address": "Falirou 88, Athina 117 41, Athens, Greece",
    "latitude": 37.9624346,
    "longitude": 23.7228538,
    "timestamp": 1757426053.133888
  },
  "leokoriou 8, athina 105 54, athens, greece": {
    "address": "Leokoriou 8, Athina 105 54, Athens, Greece",
    "latitude": 37.9772722,
    "longitude": 23.7221855,
    "timestamp": 1757426054.801016
  },
  "kolokotroni 59b, athina 105 62, athens, greece": {
    "address": "Kolokotroni 59B, Athina 105 62, Athens, Greece",
    "latitude": 37.9774451,
    "longitude": 23.7321816,
    "timestamp": 1757426056.401699
  },
  "paramithias 14, athina 104 35, athens, greece": {
    "address": "Paramithias 14, Athina 104 35, Athens, Greece",
    "latitude": null,
    "longitude": null,
    "timestamp": 1757426057.99135
  },
  "καρόρη 23 και, agathonos 1, athina 105 51, athens, greece": {
    "address": "Καρόρη 23 και, Agathonos 1, Athina 105 51, Athens, Greece",
    "latitude": null,
    "longitude": null,
    "timestamp": 1757426059.480423
  },
  "sarri 50, athina 105 53, athens, greece": {
    "address": "Sarri 50, Athina 105 53, Athens, Greece",
    "latitude": 37.9784375,
    "longitude": 23.7217286,
    "timestamp": 1757426061.011173
  },
  "keramikou 49, athina 104 36, athens, greece": {
    "address": "Keramikou 49, Athina 104 36, Athens, Greece",
    "latitude": null,
    "longitude": null,
    "timestamp": 1757426062.5491
  },
  "chatzigianni mexi 9, athina 115 28, athens, greece": {
    "address": "Chatzigianni Mexi 9, Athina 115 28, Athens, Greece",
    "latitude": null,
    "longitude": null,
    "timestamp": 1757426064.1809459
  },
  "iraklidon 8, athina 118 51, athens, greece": {
    "address": "Iraklidon 8, Athina 118 51, Athens, Greece",
    "latitude": 37.9749422,
    "longitude": 23.719145,
    "timestamp": 1757426065.65138
  },
  "katsoulieri 7, chalandri 152 33, athens, greece": {
    "address": "Katsoulieri 7, Chalandri 152 33, Athens, Greece",
    "latitude": null,
    "longitude": null,
    "timestamp": 1757426067.025641
  },
  "ergon house athens, 23, mitropoleos street, athina, athens, greece": {
    "address": "ERGON House Athens, 23, Mitropoleos Street, Athina, Athens, Greece",
    "latitude": null,
    "longitude": null,
    "timestamp": 1757426068.61554
  },
  "protogenous 11, athina 105 54, athens, greece": {
    "address": "Protogenous 11, Athina 105 54, Athens, Greece",
    "latitude": 37.9780247,
    "longitude": 23.7256277,
    "timestamp": 1757426070.0782568
  },
  "ipitou 4-6, athina 105 57, athens, greece": {
    "address": "Ipitou 4-6, Athina 105 57, Athens, Greece",
    "latitude": 37.9742513,
    "longitude": 23.7316582,
    "timestamp": 1757426071.661407
  },
  "iperidou 1, athina 105 58, athens, greece": {
    "address": "Iperidou 1, Athina 105 58, Athens, Greece",
    "latitude": 37.9735022,
    "longitude": 23.7327949,
    "timestamp": 1757426073.1753962
  },
  "navarinou 11, athina 106 80, athens, greece": {
    "address": "Navarinou 11, Athina 106 80, Athens, Greece",
    "latitude": 37.9832208,
    "longitude": 23.7356394,
    "timestamp": 1757426074.613326
  },
  "samou 4, athina 104 38, athens, greece": {
    "address": "Samou 4, Athina 104 38, Athens, Greece",
    "latitude": 37.9877392,
    "longitude": 23.7208647,
    "timestamp": 1757426076.285562
  },
  "solomou 54, athens, athens, greece": {
    "address": "Solomou 54, Athens, Athens, Greece",
    "latitude": 37.9870751,
    "longitude": 23.7307718,
    "timestamp": 1757426077.7408051
  },
  "pl. agion theodoron 3, athens, athens, greece": {
    "address": "Pl. Agion Theodoron 3, Athens, Athens, Greece",
    "latitude": 37.9792737,
    "longitude": 23.7296335,
    "timestamp": 1757426079.364755
  },
  "skoufou 15, athens, athens, greece": {
    "address": "Skoufou 15, Athens, Athens, Greece",
    "latitude": null,
    "longitude": null,
    "timestamp": 1757426080.896598
  },
  "iasonos 45, athens, athens, greece": {
    "address": "Iasonos 45, Athens, Athens, Greece",
    "latitude": 37.9846926,
    "longitude": 23.7200665,
    "timestamp": 1757426082.508914
  },
  "pireos 84, athina 104 35, athens, greece": {
    "address": "Pireos 84, Athina 104 35, Athens, Greece",
    "latitude": null,
    "longitude": null,
    "timestamp": 1757439885.242799
  },
  "voutsara 4-6, athina 118 55, athens, greece": {
    "address": "Voutsara 4-6, Athina 118 55, Athens, Greece",
    "latitude": 37.9773853,
    "longitude": 23.7034929,
    "timestamp": 1757439886.96871
  },
  "voulis 7, athina 105 62, athens, greece": {
    "address": "Voulis 7, Athina 105 62, Athens, Greece",
    "latitude": 37.9768966,
    "longitude": 23.7334542,
    "timestamp": 1757439888.453965
  },
  "klitiou 6, athina 105 60, athens, greece": {
    "address": "Klitiou 6, Athina 105 60, Athens, Greece",
    "latitude": 37.9773613,
    "longitude": 23.7298042,
    "timestamp": 1757439890.081604
  },
  "praxitelous 30, athina 105 61, athens, greece": {
    "address": "Praxitelous 30, Athina 105 61, Athens, Greece",
    "latitude": 37.9789715,
    "longitude": 23.7298314,
    "timestamp": 1757439891.5066922
  },
  "taki 14, athina 105 54, athens, greece": {
    "address": "Taki 14, Athina 105 54, Athens, Greece",
    "latitude": 37.978466,
    "longitude": 23.723904,
    "timestamp": 1757439893.017815
  },
  "plateia dexamenis, athina 106 73, athens, greece": {
    "address": "Plateia Dexamenis, Athina 106 73, Athens, Greece",
    "latitude": 37.978976,
    "longitude": 23.7410396,
    "timestamp": 1757439894.440176
  },
  "nikis 24, syntagma, athens 105 57, athens, greece": {
    "address": "Nikis 24, Syntagma, Athens 105 57, Athens, Greece",
    "latitude": null,
    "longitude": null,
    "timestamp": 1757439896.770072
  },
  "kalamiotou 15, 105 60, athens, athens, greece": {
    "address": "Kalamiotou 15, 105 60, Athens, Athens, Greece",
    "latitude": 37.9771462,
    "longitude": 23.7288609,
    "timestamp": 1757439899.44207
  },
  "voulis 36, athina 105 57, athens, greece": {
    "address": "Voulis 36, Athina 105 57, Athens, Greece",
    "latitude": 37.9755066,
    "longitude": 23.7324744,
    "timestamp": 1757439901.226568
  },
  "ag. dimitriou 12, athina 105 54, athens, greece": {
    "address": "Ag. Dimitriou 12, Athina 105 54, Athens, Greece",
    "latitude": 37.979654,
    "longitude": 23.7259362,
    "timestamp": 1757439903.1140301
  },
  "mnisikleous 24β, athina 105 56, athens, greece": {
    "address": "Mnisikleous 24β, Athina 105 56, Athens, Greece",
    "latitude": 37.9751361,
    "longitude": 23.7286739,
    "timestamp": 1757439904.802891
  },
  "pindarou 6, athina 106 71, athens, greece": {
    "address": "Pindarou 6, Athina 106 71, Athens, Greece",
    "latitude": 37.9776267,
    "longitude": 23.7382678,
    "timestamp": 1757439906.3247879
  },
  "anaxagora 3, athina 105 52, athens, greece": {
    "address": "Anaxagora 3, Athina 105 52, Athens, Greece",
    "latitude": 37.9822911,
    "longitude": 23.7259538,
    "timestamp": 1757439907.841506
  },
  "emmanouil benaki 74, athina 106 81, athens, greece": {
    "address": "Emmanouil Benaki 74, Athina 106 81, Athens, Greece",
    "latitude": 37.9856508,
    "longitude": 23.7351796,
    "timestamp": 1757439909.275926
  },
  "ifestou 26, athina 105 55, athens, greece": {
    "address": "Ifestou 26, Athina 105 55, Athens, Greece",
    "latitude": null,
    "longitude": null,
    "timestamp": 1757439910.862126
  },
  "απόλλωνος 16, patroou 1, athina 105 57, athens, greece": {
    "address": "Απόλλωνος 16, Patroou 1, Athina 105 57, Athens, Greece",
    "latitude": null,
    "longitude": null,
    "timestamp": 1757439912.443598
  },
  "panepistimiou 64, athina 105 64, athens, greece": {
    "address": "Panepistimiou 64, Athina 105 64, Athens, Greece",
    "latitude": 37.9840095,
    "longitude": 23.729685,
    "timestamp": 1757439913.953351
  },
  "evaggelistrias 17, athina 105 63, athens, greece": {
    "address": "Evaggelistrias 17, Athina 105 63, Athens, Greece",
    "latitude": null,
    "longitude": null,
    "timestamp": 1757439915.519278
  },
  "λεωφ. καλλιρρόης και αμβρ. φραντζή (πρώην εργοστάσιο, leof. andrea siggrou 51-53, athina 117 43, athens, greece": {
    "address": "Λεωφ. Καλλιρρόης και Αμβρ. Φραντζή (πρώην εργοστάσιο, Leof. Andrea Siggrou 51-53, Athina 117 43, Athens, Greece",
    "latitude": null,
    "longitude": null,
    "timestamp": 1757439917.0921888
  }
}